{"uid":"06d2dffda107b0ef89f15db6","name":"故宫博物院","type":2,"status":0,"province":"北京","city":"北京","lat":"39.924091","lng":"116.403414","date":"2013-08","evaluateType":1,"comment":""}
{"uid":"2a7a25ecf9cf13636d3e1bad","name":"颐和园","type":4,"status":0,"province":"北京","city":"北京","lat":"40.004869","lng":"116.278749","date":"2013-08","evaluateType":3,"comment":""}
{"uid":"62d852adf09e449a2fb17ef5","name":"圆明园遗址公园","type":4,"status":0,"province":"北京","city":"北京","lat":"40.012658","lng":"116.309804","date":"2013-08","evaluateType":3,"comment":""}
{"uid":"45ef9a2b5508cbfda2d230e6","name":"天坛公园","type":4,"status":0,"province":"北京","city":"北京","lat":"39.888243","lng":"116.417246","date":"2013-08","evaluateType":4,"comment":""}
{"uid":"4bb049d91598944799005000","name":"北京动物园","type":3,"status":0,"province":"北京","city":"北京","lat":"39.947735","lng":"116.343376","date":"2022-01","evaluateType":5,"comment":"冬日萧索破旧"}
{"uid":"f446091859ff806bb11e363b","name":"北京海洋馆","type":3,"status":0,"province":"北京","city":"北京","lat":"39.950277","lng":"116.347542","date":"2022-01","evaluateType":5,"comment":"陈旧,比较小"}
{"uid":"c21db9e5111538fe00ff2d32","name":"什刹海公园","type":6,"status":0,"province":"北京","city":"北京","lat":"39.948054","lng":"116.391411","date":"2021-11","evaluateType":4,"comment":""}
{"uid":"6d282c407a4ef37a1676434f","name":"香山公园","type":1,"status":0,"province":"北京","city":"北京","lat":"39.996194","lng":"116.195044","date":"2013-08","evaluateType":4,"comment":""}
{"uid":"db1f39d42752aa6ff5c59cd1","name":"中国国家博物馆","type":2,"status":0,"province":"北京","city":"北京","lat":"39.91146","lng":"116.408016","date":"2013-08","evaluateType":1,"comment":""}
{"uid":"a5097bfa3a635763f03cba06","name":"首都博物馆","type":2,"status":0,"province":"北京","city":"北京","lat":"39.912174","lng":"116.348822","date":"2013-08","evaluateType":4,"comment":""}
{"uid":"7fa88931e2fe485835b06c0b","name":"中国科学技术馆","type":3,"status":0,"province":"北京","city":"北京","lat":"40.012384","lng":"116.40504","date":"2013-08","evaluateType":1,"comment":"适合亲子"}
{"uid":"d52831f90dba02a72efaa700","name":"中国古动物馆","type":3,"status":0,"province":"北京","city":"北京","lat":"39.94321","lng":"116.340631","date":"2013-08","evaluateType":3,"comment":"亲子"}
{"uid":"c07eeb26458765a89ff77916","name":"北京天文馆","type":3,"status":0,"province":"北京","city":"北京","lat":"39.943012","lng":"116.343642","date":"2013-08","evaluateType":3,"comment":"亲子"}
{"uid":"1eddcaaa50c5e7490482c240","name":"前门大街","type":5,"status":0,"province":"北京","city":"北京","lat":"39.899689","lng":"116.404699","date":"2022-01","evaluateType":4,"comment":"无聊的商业街"}
{"uid":"4577566104531adfcb213d76","name":"王府井商业街","type":5,"status":0,"province":"北京","city":"北京","lat":"39.91979","lng":"116.418038","date":"2021-06","evaluateType":4,"comment":"陈旧 普通"}
{"uid":"10dbe9ba957db7c1cafa5fff","name":"SOLANA蓝色港湾","type":5,"status":0,"province":"北京","city":"北京","lat":"39.955678","lng":"116.4826","date":"2022-01","evaluateType":4,"comment":"夜景灯光秀很糟糕"}
{"uid":"bb3fd06fc7b47fba86420eac","name":"南锣鼓巷","type":5,"status":0,"province":"北京","city":"北京","lat":"39.943562","lng":"116.408878","date":"2021-11","evaluateType":5,"comment":"很一般的商业街"}
{"uid":"701c90cb1db09f9210882452","name":"烟袋斜街特色商业街","type":5,"status":0,"province":"北京","city":"北京","lat":"39.945443","lng":"116.400974","date":"2022-01","evaluateType":4,"comment":"很短 无感"}
{"uid":"1d781b910cbf00fb8d77270b","name":"三里屯SOHO","type":5,"status":0,"province":"北京","city":"北京","lat":"39.938063","lng":"116.460054","date":"2022-04","evaluateType":4,"comment":"没啥可看的"}
{"uid":"8bc0c6d239fff525d4851f10","name":"三里屯太古里","type":5,"status":0,"province":"北京","city":"北京","lat":"39.940533","lng":"116.460997","date":"2022-07","evaluateType":4,"comment":"过于高档 没啥可看的"}
{"uid":"0334fc77b905a6d47602697c","name":"大栅栏商业街","type":5,"status":0,"province":"北京","city":"北京","lat":"39.902244","lng":"116.402275","date":"2022-04","evaluateType":3,"comment":"很热闹"}
{"uid":"150c4406d3e2d69a5a3ac854","name":"望京SOHO","type":5,"status":0,"province":"北京","city":"北京","lat":"40.002211","lng":"116.487288","date":"2022-04","evaluateType":4,"comment":"造型确实很好看"}
{"uid":"f982112619c0964d9a0050bc","name":"五道营胡同","type":5,"status":0,"province":"北京","city":"北京","lat":"39.954776","lng":"116.416503","date":"2022-04","evaluateType":5,"comment":"小型步行街 没啥特色"}
{"uid":"41572e00530f08b4b45f1ed2","name":"北京孔庙和国子监博物馆","type":2,"status":0,"province":"北京","city":"北京","lat":"39.95288","lng":"116.420267","date":"2022-04","evaluateType":4,"comment":"孔庙小建筑群 各地类似"}
{"uid":"58dab29e6dd4c8e74d776ef9","name":"中国铁道博物馆(东郊展馆)","type":2,"status":0,"province":"北京","city":"北京","lat":"40.003628","lng":"116.522415","date":"2022-04","evaluateType":3,"comment":"火车头展览很不错"}
{"uid":"492833248b0228a643024537","name":"中国电影博物馆","type":2,"status":0,"province":"北京","city":"北京","lat":"40.002177","lng":"116.527508","date":"2022-04","evaluateType":2,"comment":""}
{"uid":"934e1fcc10ee0881eedfca5b","name":"北京798艺术区","type":3,"status":0,"province":"北京","city":"北京","lat":"39.991088","lng":"116.502072","date":"2022-04","evaluateType":1,"comment":""}
{"uid":"26d62eb4ba8e27176240a90d","name":"北京地坛公园","type":4,"status":0,"province":"北京","city":"北京","lat":"39.959903","lng":"116.421358","date":"2022-04","evaluateType":4,"comment":"比较无聊"}
{"uid":"d6df91c1b141f36af7b916d2","name":"中国美术馆","type":3,"status":0,"province":"北京","city":"北京","lat":"39.931473","lng":"116.415449","date":"2022-04","evaluateType":5,"comment":"展品很少"}
{"uid":"4b622bba5f9b4d2781a12e0a","name":"景山公园","type":6,"status":0,"province":"北京","city":"北京","lat":"39.93227","lng":"116.402818","date":"2022-04","evaluateType":5,"comment":"并不能看清故宫 离得很远"}
{"uid":"49d959381b59a043c61e5102","name":"北海公园","type":4,"status":0,"province":"北京","city":"北京","lat":"39.932909","lng":"116.39548","date":"2022-04","evaluateType":3,"comment":""}
{"uid":"844a750e243807a06268585e","name":"琉璃厂古文化街","type":5,"status":0,"province":"北京","city":"北京","lat":"39.901621","lng":"116.39146","date":"2022-04","evaluateType":5,"comment":"没看出来有啥"}
{"uid":"2bb54e31c13a3470bda24091","name":"北京古代建筑博物馆","type":2,"status":0,"province":"北京","city":"北京","lat":"39.884171","lng":"116.398957","date":"2022-04","evaluateType":3,"comment":""}
{"uid":"fa01e9378b06f14a774ff1f0","name":"陶然亭公园","type":6,"status":0,"province":"北京","city":"北京","lat":"39.88066","lng":"116.388442","date":"2022-04","evaluateType":1,"comment":"很多全国各地有名的小亭子"}
{"uid":"4cf8d24ea7a848fd9df779b4","name":"北京鲁迅博物馆","type":2,"status":0,"province":"北京","city":"北京","lat":"39.931673","lng":"116.365382","date":"2022-04","evaluateType":2,"comment":""}
{"uid":"a73f78c423daf33b9d82ea34","name":"中国国家图书馆","type":3,"status":0,"province":"北京","city":"北京","lat":"39.949641","lng":"116.330065","date":"2022-04","evaluateType":1,"comment":""}
{"uid":"511e94bc1370cb418c55ecfd","name":"国家典籍博物馆","type":2,"status":0,"province":"北京","city":"北京","lat":"39.948903","lng":"116.330725","date":"2022-04","evaluateType":2,"comment":""}
{"uid":"5ce2637d2824d051af31e5b6","name":"中国人民革命军事博物馆","type":2,"status":0,"province":"北京","city":"北京","lat":"39.914976","lng":"116.330207","date":"2022-04","evaluateType":2,"comment":"很多飞机武器"}
{"uid":"3810c87916332c8b9d09f7b2","name":"玉渊潭公园","type":6,"status":0,"province":"北京","city":"北京","lat":"39.922467","lng":"116.326526","date":"2022-04","evaluateType":4,"comment":""}
{"uid":"14076deea795edf402294f07","name":"北京园博园","type":6,"status":0,"province":"北京","city":"北京","lat":"39.881733","lng":"116.197194","date":"2022-04","evaluateType":6,"comment":""}
{"uid":"5ec201faf05332672eb90851","name":"中国人民抗日战争纪念馆","type":3,"status":0,"province":"北京","city":"北京","lat":"39.857753","lng":"116.232474","date":"2022-04","evaluateType":3,"comment":""}
{"uid":"5520715678e80ecf05fef525","name":"东交民巷","type":5,"status":0,"province":"北京","city":"北京","lat":"39.908282","lng":"116.423819","date":"2022-04","evaluateType":2,"comment":"很多民国建筑"}
{"uid":"108b1ceafad4fdac3586f467","name":"中国航空博物馆","type":2,"status":0,"province":"北京","city":"北京","lat":"40.192095","lng":"116.372885","date":"2022-04","evaluateType":2,"comment":"很多飞机"}
{"uid":"e2c734e489d8d15d15a190d1","name":"中山公园","type":4,"status":0,"province":"北京","city":"北京","lat":"39.916702","lng":"116.400582","date":"2022-04","evaluateType":4,"comment":"社稷坛"}
{"uid":"fe72ca0cebe8d75e95f08ca2","name":"北京劳动人民文化宫","type":4,"status":0,"province":"北京","city":"北京","lat":"39.917115","lng":"116.406356","date":"2022-04","evaluateType":3,"comment":"太庙"}
{"uid":"207db3a029ff63e65cd4fe93","name":"中国农业博物馆","type":2,"status":0,"province":"北京","city":"北京","lat":"39.946976","lng":"116.469233","date":"2022-04","evaluateType":4,"comment":""}
{"uid":"2b34d66df35285eb85154125","name":"东直门外大街","type":5,"status":0,"province":"北京","city":"北京","lat":"39.946886","lng":"116.45163","date":"2022-04","evaluateType":2,"comment":"外国使馆建筑群"}
{"uid":"03d7e5971f3675483c9a5e9e","name":"奥林匹克森林公园","type":6,"status":0,"province":"北京","city":"北京","lat":"40.025231","lng":"116.396797","date":"2022-04","evaluateType":4,"comment":""}
{"uid":"8eb48fa13ed25abff22d83eb","name":"中华民族园","type":8,"status":0,"province":"北京","city":"北京","lat":"39.989379","lng":"116.397809","date":"2022-07","evaluateType":2,"comment":"民族建筑 部分荒废 很大 闭园很早"}
{"uid":"65f335dec9b88b61c2f1cf65","name":"宜家家居(西红门商场)","type":5,"status":0,"province":"北京","city":"北京","lat":"39.795181","lng":"116.331693","date":"2022-07","evaluateType":1,"comment":""}
{"uid":"2fd2beabe34a80517adbd220","name":"八达岭长城","type":4,"status":0,"province":"北京","city":"北京","lat":"40.362639","lng":"116.024067","date":"2022-04","evaluateType":1,"comment":""}
{"uid":"84331794ff0df867b6147f92","name":"玛雅海滩水公园","type":8,"status":0,"province":"天津","city":"天津","lat":"39.194498","lng":"117.480237","date":"2022-08","evaluateType":3,"comment":"水上乐园"}
{"uid":"edd64ce1288117883fe23151","name":"北塘古镇","type":4,"status":0,"province":"天津","city":"天津","lat":"39.114672","lng":"117.727731","date":"2022-08","evaluateType":6,"comment":"新修的古镇"}
{"uid":"b8769acd2b86e7259c09f7e9","name":"东疆亲海公园","type":6,"status":0,"province":"天津","city":"天津","lat":"39.039781","lng":"117.824418","date":"2022-08","evaluateType":5,"comment":"海边 只能看海 没有沙滩"}
{"uid":"3240a8cfa15fe6ddaeb22a15","name":"东疆湾景区","type":6,"status":0,"province":"天津","city":"天津","lat":"39.013278","lng":"117.832457","date":"2022-08","evaluateType":3,"comment":"海边 天气好则海水蓝"}
{"uid":"33c3d820f455cd9e2c4733ab","name":"上海城隍庙","type":4,"status":0,"province":"上海","city":"上海","lat":"31.231472","lng":"121.499034","date":"2006","evaluateType":1,"comment":"庙宇 九曲桥 商圈"}
{"uid":"606289fda2cbca54a2046453","name":"豫园","type":4,"status":0,"province":"上海","city":"上海","lat":"31.232713","lng":"121.498731","date":"2016-07","evaluateType":2,"comment":"江南园林"}
{"uid":"68ab5b13c5d316e8eee4a55f","name":"上海静安寺","type":9,"status":0,"province":"上海","city":"上海市","lat":"31.229947","lng":"121.451595","date":"2016-07","evaluateType":4,"comment":"寺庙"}
{"uid":"1020060fde6aada71994c6ab","name":"上海博物馆","type":2,"status":0,"province":"上海","city":"上海市","lat":"31.234143","lng":"121.48223","date":"2016-07","evaluateType":1,"comment":""}
{"uid":"c7fb04bd1eba3c14fb0cad8b","name":"上海野生动物园","type":3,"status":0,"province":"上海","city":"上海市","lat":"31.061244","lng":"121.728256","date":"2006","evaluateType":3,"comment":"动物园"}
{"uid":"449eb70004746dd826d2bb7a","name":"共青国家森林公园","type":6,"status":0,"province":"上海","city":"上海市","lat":"31.325265","lng":"121.55837","date":"2006","evaluateType":1,"comment":""}
{"uid":"5c2dc21dd3dcd2056ec02cab","name":"外滩","type":5,"status":0,"province":"上海","city":"上海市","lat":"31.243453","lng":"121.497204","date":"2016-07","evaluateType":1,"comment":"江景 民国建筑群 现代建筑群"}
{"uid":"3c0ea7c50e4f35e2fbf0cb2c","name":"南京路步行街","type":5,"status":0,"province":"上海","city":"上海市","lat":"31.243293","lng":"121.491176","date":"2016-07","evaluateType":1,"comment":""}
{"uid":"480b24d0c8ac98f19cec2b3c","name":"重庆洪崖洞","type":4,"status":0,"province":"重庆","city":"重庆市","lat":"29.568199","lng":"106.584766","date":"2017-05","evaluateType":1,"comment":""}
{"uid":"4f065204f854c8811ce999f1","name":"重庆中国三峡博物馆","type":2,"status":0,"province":"重庆","city":"重庆市","lat":"29.568347","lng":"106.556883","date":"2021-07","evaluateType":4,"comment":""}
{"uid":"be54cde952e0162679f796b4","name":"长江索道景区","type":1,"status":0,"province":"重庆","city":"重庆市","lat":"29.563936","lng":"106.589294","date":"2017-05","evaluateType":6,"comment":"江景一般 排队一小时,看景5分钟"}
{"uid":"d216d8b94ad855fcb320a8d6","name":"山城步道","type":5,"status":0,"province":"重庆","city":"重庆市","lat":"29.556346","lng":"106.575298","date":"2017-07","evaluateType":4,"comment":"步行很累"}
{"uid":"d8d30a3b30a2b3a1c72ba112","name":"解放碑步行街","type":5,"status":0,"province":"重庆","city":"重庆市","lat":"29.563793","lng":"106.583661","date":"2017-05","evaluateType":4,"comment":""}
{"uid":"c58b5e1e6219d2b192114c7e","name":"中山四路","type":5,"status":0,"province":"重庆","city":"重庆市","lat":"29.567405","lng":"106.553459","date":"2017-05","evaluateType":2,"comment":"民国建筑"}
{"uid":"e56bf5e30a0a77440782c23c","name":"周公馆","type":4,"status":0,"province":"重庆","city":"重庆市","lat":"29.571572","lng":"106.556959","date":"2017-05","evaluateType":2,"comment":""}
{"uid":"d98480f72d2be1cdc4f50d04","name":"斯大林公园","type":6,"status":0,"province":"黑龙江","city":"哈尔滨市","lat":"45.785697","lng":"126.619047","date":"2018-10","evaluateType":2,"comment":"松花江畔"}
{"uid":"63609ad77101d6ad39e4a61d","name":"中央大街","type":5,"status":0,"province":"黑龙江","city":"哈尔滨市","lat":"45.780656","lng":"126.625258","date":"2018-10","evaluateType":1,"comment":"夜景很棒"}
{"uid":"e889a7449a8a7bb58605bf45","name":"嵩山风景区","type":1,"status":0,"province":"河南","city":"郑州市","lat":"34.519916","lng":"113.021371","date":"2017-07","evaluateType":4,"comment":""}
{"uid":"3d0e46a9064a18dbdbd891e1","name":"少林寺","type":9,"status":0,"province":"河南","city":"郑州市","lat":"34.513032","lng":"112.947846","date":"2017-07","evaluateType":3,"comment":""}
{"uid":"c8b5cdeffbaeae00130daa6d","name":"嵩阳书院","type":4,"status":0,"province":"河南","city":"郑州市","lat":"34.486404","lng":"113.039994","date":"2017-07","evaluateType":4,"comment":"比较小"}
{"uid":"ad3b404a9fe4c42ffb2d6117","name":"建业·华谊兄弟电影小镇","type":8,"status":0,"province":"河南","city":"郑州市","lat":"34.781969","lng":"114.005741","date":"2020-05","evaluateType":5,"comment":"关于电影工业的啥也没有 比较坑"}
{"uid":"39d43f829039d586a8059dfa","name":"郑州黄河风景名胜区","type":1,"status":0,"province":"河南","city":"郑州市","lat":"34.960246","lng":"113.519367","date":"2016-10","evaluateType":4,"comment":""}
{"uid":"5c079cdc3af9ffd97069d3b7","name":"郑州方特欢乐世界","type":8,"status":0,"province":"河南","city":"郑州市","lat":"34.771598","lng":"113.93658","date":"2016-10","evaluateType":3,"comment":"万圣节夜场"}
{"uid":"ff2d1d4fc6b02a6cc6f025ba","name":"河南大学(明伦校区)","type":4,"status":0,"province":"河南","city":"开封市","lat":"34.817677","lng":"114.37568","date":"2016-08","evaluateType":1,"comment":""}
{"uid":"cb4fd1465b29b9589d9d681a","name":"大相国寺","type":9,"status":0,"province":"河南","city":"开封市","lat":"34.797996","lng":"114.361058","date":"2017-05","evaluateType":3,"comment":""}
{"uid":"6bb72ba4fb237198bca822f3","name":"包公祠","type":4,"status":0,"province":"河南","city":"开封市","lat":"34.799097","lng":"114.345584","date":"2017-05","evaluateType":4,"comment":""}
{"uid":"782962572ca63178d12dd682","name":"万岁山大宋武侠城","type":8,"status":0,"province":"河南","city":"开封市","lat":"34.826399","lng":"114.356144","date":"2017-05","evaluateType":1,"comment":"水浒传主题公园 有很多剧场演出"}
{"uid":"c181ed31a33e9c070582c216","name":"开封市博物馆","type":2,"status":0,"province":"河南","city":"开封市","lat":"34.809781","lng":"114.260221","date":"2019-06","evaluateType":4,"comment":"布置不错 赝品居多"}
{"uid":"48eb0058912e17b42ee67b91","name":"鼓楼夜市","type":5,"status":0,"province":"河南","city":"开封市","lat":"34.800368","lng":"114.362371","date":"2017-05","evaluateType":3,"comment":"夜市 小吃街"}
{"uid":"38798dfb21039ec91188249b","name":"西司广场夜市","type":5,"status":0,"province":"河南","city":"开封市","lat":"34.800852","lng":"114.344341","date":"2017-05","evaluateType":3,"comment":"夜市 小吃街"}
{"uid":"5af8ee2e772c6e7c2cb908b5","name":"洛邑古城","type":7,"status":0,"province":"河南","city":"洛阳市","lat":"34.686102","lng":"112.491784","date":"2019-04","evaluateType":1,"comment":"洛阳老街 小吃街 夜市"}
{"uid":"fa01e937b5a5ef4a774ff14d","name":"洛阳古代艺术博物馆","type":2,"status":0,"province":"河南","city":"洛阳市","lat":"34.739125","lng":"112.420808","date":"2019-04","evaluateType":1,"comment":"古墓博物馆"}
{"uid":"ea4a3dc942c4b72f4f5547aa","name":"泰山风景名胜区","type":1,"status":0,"province":"山东","city":"泰安市","lat":"36.269893","lng":"117.094738","date":"2016-06","evaluateType":3,"comment":"2小时登顶 3小时下山"}
{"uid":"75d0881ac2c3054c3b04b1bc","name":"万平口海滨风景区","type":1,"status":0,"province":"山东","city":"日照市","lat":"35.412151","lng":"119.570967","date":"2018-07","evaluateType":2,"comment":"大海 沙滩"}
{"uid":"014ed49bfa688493eb1e9776","name":"玄武湖公园","type":1,"status":0,"province":"江苏","city":"南京市","lat":"32.07709","lng":"118.81736","date":"2014-08","evaluateType":4,"comment":""}
{"uid":"8fde79cc5a98e5c295ca072d","name":"南京钟山风景区","type":4,"status":0,"province":"江苏","city":"南京市","lat":"32.069291","lng":"118.859406","date":"2016-06","evaluateType":2,"comment":"综合性景观 多民国建筑"}
{"uid":"7bfa08fcffe4840224d2bba1","name":"明孝陵博物馆","type":2,"status":0,"province":"江苏","city":"南京市","lat":"32.050767","lng":"118.850026","date":"2016-06","evaluateType":4,"comment":""}
{"uid":"f0a0e3a0f99db1ec0782c208","name":"中山陵","type":4,"status":0,"province":"江苏","city":"南京市","lat":"32.059739","lng":"118.861453","date":"2014-08","evaluateType":4,"comment":""}
{"uid":"9d0cf4493252e3a58b36ee2b","name":"夫子庙步行街","type":5,"status":0,"province":"江苏","city":"南京市","lat":"32.025508","lng":"118.795813","date":"2014-08","evaluateType":3,"comment":""}
{"uid":"5e25f7ddcfa403036140a938","name":"南京夫子庙","type":9,"status":0,"province":"江苏","city":"南京市","lat":"32.026944","lng":"118.79543","date":"2016-06","evaluateType":2,"comment":""}
{"uid":"d24e48eb4aac8db4afee7aec","name":"南京博物院","type":2,"status":0,"province":"江苏","city":"南京市","lat":"32.046772","lng":"118.83165","date":"2014-08","evaluateType":1,"comment":"-1层民国街很棒"}
{"uid":"5d390811462fecda5e0d02ed","name":"侵华日军南京大屠杀遇难同胞纪念馆","type":3,"status":0,"province":"江苏","city":"南京市","lat":"32.04067","lng":"118.749731","date":"2014-08","evaluateType":1,"comment":""}
{"uid":"b54862235dba4c0bcbe33c30","name":"夫子庙秦淮风光带","type":7,"status":0,"province":"江苏","city":"南京市","lat":"32.026196","lng":"118.795956","date":"2016-06","evaluateType":4,"comment":""}
{"uid":"161a0ed275bcfc495cd4fe13","name":"瞻园","type":4,"status":0,"province":"江苏","city":"南京市","lat":"32.027335","lng":"118.791517","date":"2016-06","evaluateType":2,"comment":"江南园林"}
{"uid":"5211d21956d57d417dc87633","name":"莫愁湖公园","type":6,"status":0,"province":"江苏","city":"南京市","lat":"32.042376","lng":"118.767697","date":"2016-06","evaluateType":3,"comment":""}
{"uid":"88b308c387cb9bd388db7370","name":"雨花台风景名胜区","type":6,"status":0,"province":"江苏","city":"南京市","lat":"32.004004","lng":"118.788054","date":"2009-05","evaluateType":5,"comment":"红色纪念景区"}
{"uid":"40e181fa9be7ff62c07da2f5","name":"朝天宫","type":4,"status":0,"province":"江苏","city":"南京市","lat":"32.038922","lng":"118.781948","date":"2014-08","evaluateType":1,"comment":"古代宫殿建筑群"}
{"uid":"b38b563e6caefe4b2b201a37","name":"金鸡湖景区","type":1,"status":0,"province":"江苏","city":"苏州市","lat":"31.31043","lng":"120.707796","date":"2011-07","evaluateType":2,"comment":"公园 高档美食街区"}
{"uid":"95b116abf4b4e15de31103b5","name":"苏州博物馆","type":2,"status":0,"province":"江苏","city":"苏州市","lat":"31.329059","lng":"120.634317","date":"2017-02","evaluateType":2,"comment":""}
{"uid":"f05b6971de5c72156140a9b7","name":"苏州平江历史文化街区","type":7,"status":0,"province":"江苏","city":"苏州市","lat":"31.319846","lng":"120.64099","date":"2017-02","evaluateType":1,"comment":""}
{"uid":"7aea43b75d1fe1e17c29bd66","name":"惠山古镇","type":7,"status":0,"province":"江苏","city":"无锡市","lat":"31.58758","lng":"120.280765","date":"2016-06","evaluateType":2,"comment":"江南古镇"}
{"uid":"15bcbb1324c9606c067ce8f3","name":"无锡锡惠公园","type":6,"status":0,"province":"江苏","city":"无锡市","lat":"31.583561","lng":"120.277442","date":"2016-06","evaluateType":3,"comment":""}
{"uid":"858d1d8cf10efd039c09f78b","name":"无锡锡惠公园-寄畅园","type":4,"status":0,"province":"江苏","city":"无锡市","lat":"31.586343","lng":"120.276949","date":"2016-06","evaluateType":1,"comment":"江南园林"}
{"uid":"5ff43b499b16063c6e3e1b5f","name":"南长街历史文化旅游街区","type":7,"status":0,"province":"江苏","city":"无锡市","lat":"31.56114","lng":"120.324453","date":"2016-06","evaluateType":1,"comment":"夜景很棒"}
{"uid":"796386b270c0d1b8badf8fbc","name":"无锡市东林书院","type":4,"status":0,"province":"江苏","city":"无锡市","lat":"31.582606","lng":"120.315141","date":"2016-06","evaluateType":2,"comment":""}
{"uid":"d956aa6967d1dbdee856fa68","name":"无锡薛福成故居","type":4,"status":0,"province":"江苏","city":"无锡市","lat":"31.576702","lng":"120.302498","date":"2015-08","evaluateType":2,"comment":"江南第一豪宅 古代富商家宅"}
{"uid":"0a56f7c642e84bb515a190b4","name":"无锡博物院","type":2,"status":0,"province":"江苏","city":"无锡市","lat":"31.555414","lng":"120.312567","date":"2015-08","evaluateType":4,"comment":"藏品较少"}
{"uid":"637df60a0c40da0f40afe633","name":"中国丝业博物馆","type":2,"status":0,"province":"江苏","city":"无锡市","lat":"31.56357","lng":"120.321551","date":"2016-06","evaluateType":4,"comment":""}
{"uid":"befdb2928feb80e1861541a3","name":"寿县古城墙","type":7,"status":0,"province":"安徽","city":"淮南市","lat":"32.592976","lng":"116.791548","date":"2016-04","evaluateType":5,"comment":"寿县古城 没啥可看的"}
{"uid":"bc3487ab4c880dbccac3db86","name":"寿县博物馆(新馆)","type":2,"status":0,"province":"安徽","city":"淮南市","lat":"32.569895","lng":"116.80866","date":"2016-04","evaluateType":4,"comment":"不错的县级博物馆 旧馆"}
{"uid":"67eb5cec18e699bcfb2d6182","name":"褒禅山","type":1,"status":0,"province":"安徽","city":"马鞍山市","lat":"31.78312","lng":"118.114041","date":"2015-02","evaluateType":5,"comment":"华阳洞 看点不多"}
{"uid":"be1ea5ef2fb034c214948edd","name":"陋室公园","type":4,"status":0,"province":"安徽","city":"马鞍山市","lat":"31.722618","lng":"118.373912","date":"2015-11","evaluateType":3,"comment":""}
{"uid":"7d5f3a0affd1914b2cb90874","name":"九华山风景区","type":1,"status":0,"province":"安徽","city":"池州市","lat":"30.484894","lng":"117.830511","date":"2016-01","evaluateType":4,"comment":""}
{"uid":"377f60f8f1cc0902b34c4919","name":"安徽省博物院","type":2,"status":0,"province":"安徽","city":"合肥市","lat":"31.808263","lng":"117.226663","date":"2014-05","evaluateType":3,"comment":""}
{"uid":"0c84c53dbbf252bfb817e7d1","name":"周瑜墓园","type":4,"status":0,"province":"安徽","city":"合肥市","lat":"31.252653","lng":"117.305989","date":"2016-03","evaluateType":4,"comment":""}
{"uid":"0b57b7f097aaf96276e5b63c","name":"贵州省博物馆新馆","type":2,"status":0,"province":"贵州","city":"贵阳市","lat":"26.653443","lng":"106.649196","date":"2022-01","evaluateType":3,"comment":""}
{"uid":"38e48037b79d814a373a7171","name":"黔灵山公园","type":1,"status":0,"province":"贵州","city":"贵阳市","lat":"26.604073","lng":"106.699008","date":"2022-01","evaluateType":4,"comment":"爬山"}
{"uid":"e10cd1f40033a27848fd3f56","name":"杜甫草堂","type":4,"status":0,"province":"四川","city":"成都市","lat":"30.667301","lng":"104.034248","date":"2017-05","evaluateType":3,"comment":""}
{"uid":"7388dffd41b17af2d3ff230f","name":"文殊院","type":9,"status":0,"province":"四川","city":"成都市","lat":"30.681353","lng":"104.079149","date":"2017-05","evaluateType":4,"comment":"寺庙"}
{"uid":"c8e8f633ef9eb96dab0dd8ec","name":"锦里古街","type":5,"status":0,"province":"四川","city":"成都市","lat":"30.651897","lng":"104.056257","date":"2017-04","evaluateType":2,"comment":"古建步行街"}
{"uid":"480b24d01660728f9cec2b77","name":"成都武侯祠博物馆","type":4,"status":0,"province":"四川","city":"成都市","lat":"30.652582","lng":"104.054572","date":"2017-04","evaluateType":3,"comment":""}
{"uid":"4edf9fbf4bfbea8dcd06a4f3","name":"宽窄巷子","type":5,"status":0,"province":"四川","city":"成都市","lat":"30.669938","lng":"104.059763","date":"2022-04","evaluateType":3,"comment":""}
{"uid":"a37461f42faa2e56c0364428","name":"东郊记忆","type":5,"status":0,"province":"四川","city":"成都市","lat":"30.674976","lng":"104.129446","date":"2017-04","evaluateType":2,"comment":"文化艺术街区 工业区改造"}
{"uid":"7077fef6b10714af33621209","name":"九眼桥酒吧街","type":5,"status":0,"province":"四川","city":"成都市","lat":"30.645997","lng":"104.09467","date":"2017-04","evaluateType":3,"comment":""}
{"uid":"03a6e15e1464026f88f15d3e","name":"春熙路步行街","type":5,"status":0,"province":"四川","city":"成都市","lat":"30.661516","lng":"104.084227","date":"2017-04","evaluateType":4,"comment":""}
{"uid":"43bd314f905c279be6e96566","name":"合江门广场","type":6,"status":0,"province":"四川","city":"宜宾市","lat":"28.773307","lng":"104.637803","date":"2021-11","evaluateType":3,"comment":"三江汇流 长江七点"}
{"uid":"a3f71d5e78367dc8631c6795","name":"冠英古街","type":7,"status":0,"province":"四川","city":"宜宾市","lat":"28.771954","lng":"104.636276","date":"2021-12","evaluateType":1,"comment":"龙抄手很好吃"}
{"uid":"f732144cfccad22fd92f284e","name":"李庄古镇","type":7,"status":0,"province":"四川","city":"宜宾市","lat":"28.809158","lng":"104.807246","date":"2021-12","evaluateType":1,"comment":""}
{"uid":"bff8fa7d93337fb9c8213ddd","name":"宜宾市翠屏山景区","type":4,"status":0,"province":"四川","city":"宜宾市","lat":"28.768942","lng":"104.606151","date":"2022-04","evaluateType":2,"comment":"要爬山 哪吒行宫 寺庙 道观"}
{"uid":"4642844a735bd2dac9fa5f49","name":"华山风景区","type":1,"status":0,"province":"陕西","city":"渭南市","lat":"34.497647","lng":"110.073028","date":"2017-04","evaluateType":1,"comment":"西岳华山"}